stop_id,stop_code,stop_name,stop_desc,stop_lat,stop_lon,location_type,wheelchair_boarding
2a0d989a-7a21-4c1e-a09b-da22977072aa,"1114","Torgersen Hall","714",37.2296655016938,-80.420837278416,0,0
019c371d-5405-484c-9722-591808af8354,"1104","Old Security Bldg","704",37.2315430481162,-80.4221287621336,0,0
45aa8a53-ffe5-42b7-b240-9ad6cc572417,"1300","Toms Creek/Winston Nbnd","300",37.2347992500543,-80.4258919016058,0,0
afa4093c-745a-4717-9fb5-d01e564fb17a,"1301","Gilbert Linkous Nbnd","301",37.2365668259005,-80.4268186048757,0,0
e4fcee96-65aa-457c-8fe1-f8b09436f36a,"1302","Toms Creek/Watson Nbnd","302",37.238024606587,-80.4266053692463,0,0
0b8f9401-6983-4b67-a9bd-1d2fc2e66ebd,"1303","Toms Creek/McBryde Nbnd","303",37.2402629101433,-80.4271351055583,0,0
822878c3-c249-4ad9-9bf0-bb675364dd61,"1337","Toms Creek/Hunt Club Nbnd",,37.2420827890684,-80.42768227623,0,0
b4e966f6-1243-48d9-9c78-f239c0b425b2,"1310","University City/Toms Creek Wbnd","310",37.2429612125731,-80.4296630877056,0,0
de398dae-7e32-4635-ab81-3eadef6bac8b,"1311","Shawnee on University City Wbnd","311",37.2422356749914,-80.433376606308,0,0
5e97b6fb-ad14-4262-bce7-3eb36cf69442,"1312","Shawnee on University City Sbnd","312",37.241032,-80.435229,0,0
d920fa13-7ac4-42ce-92a7-cc470c912ed1,"1313","University City/Broce Sbnd","313",37.2372186027299,-80.4348048826936,0,0
51853f22-adce-4bda-b16f-24ca6493c4ec,"1314","University City/Glade Sbnd","314",37.2357836208214,-80.4340619107522,0,0
8fa4b585-f90b-4863-8cc8-b42ac5f83f46,"1315","University Mall Sbnd","315",37.2342319628138,-80.4332585891043,0,0
84b2a5b3-fa95-4fb2-ba49-beec6a02938f,"1115","Wright House","716",37.226754,-80.425753,0,0
2c15969c-3390-4440-9cf6-ae57344d1335,"1116","Litton Reaves Hall","717",37.2224369479678,-80.4235275342183,0,0
8568b49f-7c5a-4663-ab7d-1da9b7d3c14d,"1123","McComas Hall","727",37.2212205661071,-80.4223004235208,0,0
33c18f72-13f2-44ba-a33b-68a1c46a0a1e,"1124","Cassell Coliseum","728",37.2231262757257,-80.4194773983644,0,0
5cd15812-24df-47b8-b50b-ec45f68f4ee4,"1125","Tennis Courts","729",37.2250467374949,-80.4167187462281,0,0
ecf70f03-ccbb-484a-a994-859acf9f00ea,"1100","Newman Library","700",37.2285349505267,-80.4197657358507,0,0
ced0c7c5-bb08-48e9-ad0a-6c71dd7e01e8,"1113","Squires Wbnd","713",37.229775,-80.419097,0,0
3898c5ca-406a-4dd6-8bc5-a625d2e3aa23,"1334","Prices Fork/Turner Ebnd",,37.233864,-80.422612,0,0
fc4e02c3-9f90-463d-b149-dec3bf9092ea,"1400","Main/Montgomery Nbnd","100",37.23806349862,-80.4205274832563,0,0
2bcc832c-467f-43e8-9dfc-f4928d8b7cd4,"1401","Main/Lucas Nbnd S","101",37.2391216301394,-80.4199548315975,0,0
77c615dd-3246-45a1-acc2-d2dd01de27a6,"1402","Lucas/Main Ebnd","102",37.2396795296478,-80.4184031735899,0,0
a4e5a421-75a3-4980-8071-73d155a315da,"1403","Lucas/Giles Ebnd","103",37.2393,-80.416711,0,0
760c0633-9114-46db-9307-dc2a7f0133b8,"1404","Giles/Northview Nbnd","104",37.24095,-80.416242,0,0
1c71ff8c-6d3d-4eed-8a26-9089bb3a88d5,"1405","Giles/Heights Nbnd","105",37.2429,-80.414471,0,0
ab21c3e6-1447-4305-8b1b-e29124a9c54d,"1406","Giles/Patrick Henry Nbnd","106",37.2449406829441,-80.4122314102788,0,0
39299d6e-f459-4c75-b816-aea13956eb55,"1407","Patrick Henry/Giles Wbnd","107",37.2453121689148,-80.4128751404807,0,0
a907cf7d-19aa-4c31-be44-63a8b24f2cd7,"1408","Patrick Henry/Main Wbnd","108",37.2460765985296,-80.4143503555268,0,0
35fb2711-2953-43ca-8b20-1c9cbbd2ae01,"1414","Pheasant Run","117",37.249051,-80.416995,0,0
0177cd65-a6e5-48a0-80e8-304a7a0b5a50,"1415","Seneca/Patrick Henry Sbnd","118",37.2474163620124,-80.4175582776998,0,0
5caee734-ebc7-45dc-9d31-3992a56c63a2,"1438","Patrick Henry/Mary Jane Wbnd",,37.2467498330325,-80.4198314499755,0,0
43ff3983-32b3-4a5a-9942-f66132f09a22,"1326","Progress/Hunt Club Sbnd","410",37.2448736277147,-80.421412612284,0,0
fff7af1e-1299-4814-82ee-6ceab82d537c,"1327","Progress/University Terr Sbnd","411",37.2435016777218,-80.4218699289483,0,0
77b8e19d-8a95-4f72-b847-84196b5b2812,"1328","Progress/Broce Sbnd","412",37.2423429633583,-80.4222481204419,0,0
8b5bc83b-fc9a-43a9-858b-302e8c31dcf9,"1340","Progress/Watson Sbnd",,37.2392852448991,-80.422364796541,0,0
04583db7-62a3-4faf-9f9a-610a1a1e8162,"1421","Main/Kabrich Sbnd","124",37.2360022208692,-80.4210263741628,0,0
6058be73-08b4-4cd5-9552-2f1c489ce9aa,"1422","Main/Collegiate Ct Sbnd","125",37.2343084057753,-80.419524337025,0,0
87eb1a14-4b6c-46f9-b250-084e52ead5ee,"1423","Main/Turner Sbnd","126",37.2332341810008,-80.4181228827311,0,0
c1a7e373-d29f-4ae8-91db-0de08fc115a6,"1112","Alumni Mall Wbnd","712",37.2311903376097,-80.4167831192484,0,0
586f276a-1281-4eb5-a884-33d614762a9f,"1110","Squires Ebnd","710",37.229801,-80.418638,0,0
a72d2401-4e5d-488f-8fee-c2f71dca7ba6,"1111","Alumni Mall Ebnd","711",37.2310776848243,-80.416608775652,0,0
3222511f-4975-4c00-a3e4-7453ac4de636,"1600","Main/Roanoke Sbnd","127",37.2296990293085,-80.414330238958,0,0
ee28b9e7-193c-4b09-adba-9963953b48fe,"1601","Blacksburg Municipal Building","129",37.227610929466,-80.4120825476696,0,0
d716388c-aa94-4c2a-a087-b8514aab546d,"1602","Main/Eheart Sbnd","130",37.2256623045005,-80.4099501913756,0,0
8ac8ba96-4fd0-4a89-a801-6700ef28c19a,"1603","Main/Eakin Sbnd","131",37.2247972920416,-80.4089886193865,0,0
3701d4c3-27bf-45cc-beda-85904a1a2299,"1635","Main/Hemlock Sbnd","166",37.2237793936598,-80.407884890311,0,0
0ec1dd20-1c99-446b-aac0-6ef28f9cf48f,"1605","Main/Airport Sbnd","133",37.2221968902467,-80.4061307255108,0,0
aa51b915-21f6-486f-bd42-de561857a9ed,"1606","Main/Faystone Sbnd","134",37.2195750307783,-80.4032218696607,0,0
3d4a3fd2-4cc7-4b91-b1f8-50d1c3508162,"1607","Gables Shopping Center","135",37.2155959734676,-80.4008065402988,0,0
aa32712b-d025-47d7-b1bd-ed1141cec2a1,"1608","Main/Landsdowne Sbnd","137",37.2131216355039,-80.4001131892272,0,0
4cbe4f1f-79be-4a8a-be73-8f524cf7f6cf,"1648","Main/King Sbnd",,37.2111032730999,-80.3996236860528,0,0
17b10429-36a3-48fe-b698-91cdf8092d17,"1609","Fairfax/Ellett Ebnd","139",37.20866514496,-80.3967295823532,0,0
d86b4c50-35de-4403-bb52-6b8476234ea2,"1610","Fairfax/New Kent Ebnd","140",37.2089762812243,-80.3960590300595,0,0
eadeb692-e84a-4879-8dd3-5bb5a4d2282d,"1611","New Kent/Loudon Ebnd","141",37.2099539464685,-80.3956607219971,0,0
f00b0638-3776-4120-83b3-364ae3f0a1ff,"1612","New Kent/Sussex Ebnd","142",37.2114707357568,-80.393687957149,0,0
e0c9c5c4-eeca-4fc2-9311-3c82a8bd10a0,"1613","Grissom/Nellies Cave Nbnd","143",37.2126602955258,-80.3935498233765,0,0
d17fe72c-9a27-47aa-b149-e18fb0ca6607,"1614","Marlington/Grissom Wbnd","144",37.2130384870194,-80.3941130873032,0,0
d81bb14c-61a8-4ecb-a2d0-27ea6a5df8d3,"1615","Marlington/Emerald Wbnd","145",37.2124577887331,-80.3960751233146,0,0
da476dab-e98f-4911-a809-fb3314bb0956,"1616","Marlington/Grayland Wbnd","146",37.211893,-80.398048,0,0
9d5f680b-74df-4593-8d73-108efcb0c8ef,"1618","Main/Landsdowne Nbnd","148",37.2119293935257,-80.3998033940675,0,0
9af6fa38-89d1-4f42-9791-e7dc76b26067,"1619","Main/Ardmore Nbnd","149",37.2141811081279,-80.4004149377594,0,0
671ac0cc-efc5-4e2a-9169-6723da70849a,"1620","Blacksburg Square","150",37.2157917747373,-80.4008642077961,0,0
0272264e-fd0e-47e2-953a-7a6bfd6f3daa,"1621","Main/Cohee Nbnd","151",37.2193309497434,-80.4029590131616,0,0
f9dbaee6-5583-48b6-a223-7cbe26945b6e,"1622","Main/Sunset Nbnd","152",37.2209335697254,-80.4047762098775,0,0
45f2511d-71a1-47e0-af1e-c9378a0eff29,"1623","Main/Graves Nbnd","153",37.2223725749476,-80.4063292089897,0,0
6ed695a6-478b-4e4d-affb-be930d1452f1,"1624","Main/Hemlock Nbnd","154",37.223944349524,-80.4080511872799,0,0
886ec068-1d6d-455f-95c5-0141e2024e86,"1625","Main/Eakin Nbnd","155",37.2251164749334,-80.4093480354159,0,0
99f5eccf-1e59-4aa2-b817-dc3bcd06eb3b,"1626","Main/Clay Nbnd","156",37.2267633513667,-80.4111652321318,0,0
3206d816-0424-4db9-81d7-37eb76b6b3cf,"1627","Main/Lee Nbnd","158",37.2287924426074,-80.4133458681909,0,0
8a3b8d01-af5d-4ebf-82a1-b5944bea6dd5,"1628","Main St Post Office","159",37.229905559415,-80.4145555445287,0,0
58e609e7-c123-4646-8eaa-38d2de783c21,"1101","Burruss Hall","701",37.2284973995982,-80.4228542997154,0,0
54e2007a-a954-4139-9f06-34e1c1bd7889,"1102","Davidson Hall","702",37.2264294163245,-80.4252763346002,0,0
c8659106-b051-474a-8b92-1b480463b584,"1103","West Campus/Perry Nbnd","703",37.2288966668881,-80.4274545214528,0,0
75505b9a-0998-4cab-9c6c-62a706a62a99,"1316","University Mall Nbnd","400",37.2345752855882,-80.4334315915961,0,0
799e9e48-8f5f-4a89-b2c0-9da63317ce1f,"1318","University City/Broce Nbnd","402",37.237403675163,-80.4348933955964,0,0
476242af-1d45-4e26-84c2-67451bb5996f,"1319","Shawnee on University City Nbnd","403",37.241401,-80.434982,0,0
ea8b48b6-0a48-46f9-b7dc-230bbb208fad,"1320","Shawnee on University City Ebnd","404",37.2423308934171,-80.4329045374932,0,0
ccaa54ca-7604-4319-8a37-2d272785a541,"1322","University City/Toms Creek Ebnd","406",37.2429866935603,-80.4295678692798,0,0
2df6db24-82f0-4666-9898-e17207303eb9,"1323","Patrick Henry/Toms Creek Ebnd","407",37.2440528717073,-80.4275937633272,0,0
602797ce-456d-4f46-95c9-185129743f4e,"1324","The Village on Patrick Henry Ebnd","408",37.2451177087496,-80.4247385516607,0,0
f5338b6b-4dc0-46fa-b30f-895865e3cd59,"1325","Patrick Henry/Progress Ebnd","409",37.24579898988,-80.4228449119833,0,0
9fae3bff-25c9-4695-bf1c-6c20c78fb31a,"1106","Stanger/Old Turner Wbnd","706",37.2314612407363,-80.4220442725446,0,0
e53cd06b-8fd9-4666-9a56-a98e6b6a90df,"1652","Country Club/Main Wbnd",,37.217321,-80.403612,0,0
a6c6c236-2db4-4730-a40c-fe773424858b,"1653","Country Club/Draper Wbnd",,37.216379,-80.405167,0,0
e8806753-6872-47c2-b725-8ebdfb111df0,"1654","Country Club/Airport Wbnd",,37.214605,-80.407806,0,0
d757474a-6752-4013-bb35-0a0a4a6fcece,"1655","Airport/Fairview Sbnd",,37.2122,-80.406166,0,0
a4adbb10-523b-44a9-b9e1-f20339022686,"1656","Hubbard/Kennedy Ebnd",,37.210097,-80.401928,0,0
e4661991-f220-4a4e-98ea-ca61fda84a4e,"1641","Fairfax Circle",,37.207848,-80.393925,0,0
5d87b09e-beb5-4f09-8df6-333f0b5bb341,"1132","Life Sciences 1 Bldg","748",37.2206371856116,-80.4245454326001,0,0
d14ba7a0-e0a6-4346-a8ba-2f1e6ae5d16e,"1131","Bioinfomatics Bldg","747",37.2211521697731,-80.427106942362,0,0
73612fcb-d770-4434-8d9d-8e09df233d59,"1140","Cage/Duck Pond Wbnd",,37.2224449945954,-80.4285741107806,0,0
589d2fcf-55b1-451e-ae60-d8c349018ed7,"1141","Cage/Smithfield Wbnd",,37.2216845882943,-80.4303068179075,0,0
5e7624da-8a42-47df-97e3-abed6b271cbd,"1135","Smithfield Lot",,37.223267,-80.429167,0,0
185e6f85-a6a2-4858-a7a6-b0f9e9ebebf1,"1117","Overflow Lot Wbnd","721",37.2241736784085,-80.4307547468397,0,0
7cc96573-fdf2-48b4-b6a8-b1a55519370a,"1130","Oak Lane Nbnd","745",37.2251419559206,-80.4361835382094,0,0
6ef87e26-7675-4c3a-b2db-887f68d7109e,"1118","Oak Lane North","722",37.2263368801079,-80.437413331116,0,0
b49c6379-f905-474d-82e1-4feb368297d7,"1119","Oak Lane South","723",37.2248603239572,-80.4363565407012,0,0
7b6a2e90-bcf5-4812-8dac-bca8e0b7f136,"1120","Overflow Lot Ebnd","724",37.2240905299241,-80.4308298486966,0,0
b7ec9e04-65b1-4f64-a1d4-0f8fccbda0c4,"1137","Smithfield/Duck Pond Sbnd",,37.223169,-80.429897,0,0
5c3d1aa7-2e3a-4db6-86c8-ff09e45765a7,"1138","Cage/Smithfield Ebnd",,37.2216483784704,-80.4303202289534,0,0
1492c01e-c8e4-425f-8212-5a99ee95afa4,"1139","Cage/Duck Pond Ebnd",,37.2224463356999,-80.428579475199,0,0
466355ef-b149-43ab-9885-09528cdcba2d,"1121","I Lot/Cage Sbnd","725",37.2206774187492,-80.4267528907509,0,0
c304d13d-6c9e-42eb-9ec0-870bda15bb84,"1122","Food Science Bldg","726",37.220632,-80.42437,0,0
bc84a137-d7c0-46a8-9193-f9491ef1ded3,"1126","Harper Hall","732",37.2223336829146,-80.4234779133486,0,0
acd75566-7819-4641-99ad-678510ccac21,"1107","Hutcheson Hall","707",37.2259841696014,-80.4228744162842,0,0
21846ce8-07e8-4f92-8548-6e69d9c0f2f2,"1108","War Memorial Hall","708",37.2266734973594,-80.4215789092528,0,0
d3f84084-87fd-4d69-abad-230fe8d6ba04,"1803","LewisGale Hospital Montgomery","802",37.1874435059693,-80.4104651755372,0,0
9cedc720-4cf7-41bf-8614-860955776c87,"2209","Shoppers Way Wbnd",,37.1666684548061,-80.4252441480901,0,0
50972d2a-dded-4343-a7ab-7884c4428ad3,"1801","NRV Theatre","616",37.1642142334112,-80.4291373747073,0,0
25bf432a-1c99-4f25-b822-e88c0a7a5cd0,"1800","Uptown Mall","611",37.1660917798336,-80.4285486297934,0,0
c0d6d22f-cd94-4d20-9dbe-7d26a609303d,"2226","Shoppers Way Ebnd",,37.1666778425382,-80.4252548769268,0,0
7c209db9-d3fa-4a7f-8a20-67459879111a,"1802","Walmart","601",37.161693,-80.425831,0,0
788df865-29d0-4c67-82fb-f6186b179b25,"2202","Laurel/Sycamore Ebnd",,37.162334,-80.420922,0,0
ea0d8ed7-5451-48f5-8ace-2e1e5e7eb3dd,"2204","DMV on Arbor",,37.1652978459178,-80.4179364691935,0,0
fd5457e3-8da6-4653-9c4e-4058a3d57101,"2205","Post Office on Arbor",,37.167588452553,-80.4174496482283,0,0
601d7295-c4e0-4809-9e32-f85b077b62c2,"2206","Arbor/Market",,37.1688155632505,-80.4195940744635,0,0
ef49ff0f-1fc2-4054-97d8-473ed8a308ba,"2207","Market/Shoppers Way Sbnd",,37.167082,-80.421249,0,0
ea5ffeb1-2ece-468c-97c7-ced3d17f5b5b,"1642","Main/S Hill Sbnd","811",37.2072341863653,-80.3989424049224,0,0
2fc05ae6-d0df-4dee-87e7-3903a7a42177,"1643","Main/Cedar Pointe Sbnd","812",37.2031250419095,-80.3992749988601,0,0
49c527de-3081-4bdf-a34e-86a5be2b2270,"1644","Main/South Park Sbnd","813",37.2001477897255,-80.4002687573593,0,0
70905da0-54a1-425c-9e9b-130dfa57d6e1,"1636","Industrial Park/Transportation Res Ebnd","804",37.1936595257318,-80.4002700984639,0,0
930eb39a-7ff2-441b-a3d9-9e295e43eb5b,"1637","Prosperity/Industrial Park Nbnd","805",37.1942026730897,-80.3976361690543,0,0
120a7d3f-684a-49a1-b0c6-1ff912c0d497,"1638","Professional Park Nbnd","806",37.197123598881,-80.4002982616602,0,0
b1f19ba7-6f63-4977-860e-f14f17406754,"1639","Main/Cedar Pointe Nbnd","808",37.2009162426541,-80.3999549388859,0,0
77220f86-fd30-4644-930d-c6decff5ba6b,"1640","Main/S Hill Nbnd","809",37.2069565777157,-80.3989129006215,0,0
ae26b14a-df2f-4644-8a46-4bc3b60d9965,"1129","Coliseum Parking Lot Sbnd","742",37.2222156657109,-80.419862295381,0,0
e882c39e-e548-4ca4-88d1-21b044b9204e,"1127","Lane Stadium S Endzone Sbnd","733",37.2184726428075,-80.4192735504671,0,0
77a6d5d1-ac7c-45ee-af2a-540a55c9e588,"1725","Chicken Hill/Southgate Sbnd",,37.21673,-80.41688,0,0
99e50ab3-f62d-41ec-b7e4-7d7705ffec7b,"1717","Beamer/Southgate Nbd",,37.2168968449174,-80.4189852129808,0,0
bbea4f91-4690-4418-8a76-d477a7b6d1fc,"1723","Innovation/Smoot Ebnd",,37.2087053780976,-80.4182529698761,0,0
6d26fe56-ed45-4384-95ed-741c7d813913,"1724","Innovation/Smoot Wbnd",,37.20943,-80.416795,0,0
f3549f0f-2428-48d1-98cf-06ae31b2ec53,"1705","Pratt Dr/Andrews Bldg Sbnd","746",37.2039994421005,-80.4124379403852,0,0
0214df56-c9b2-4616-af5b-fd3fe3ddd6f7,"1701","Pratt Dr/Garvin Bldg Sbnd","735",37.201621,-80.411802,0,0
ee91006c-372f-4604-8cd0-f0cb9ad71667,"1702","Pratt/Kraft Ebnd","736",37.2011133850284,-80.4107481486051,0,0
478d80d9-49f4-414a-8bac-9fd78eb2e5d8,"1727","Kraft/Pratt Dr Nbnd",,37.2019086600488,-80.4098174220215,0,0
decb7c83-22a3-4d71-a22e-aa660fc2f344,"1728","Kraft/Research Ctr Dr Nbnd",,37.204829,-80.409838,0,0
cbee437a-480a-41b2-b9cb-0cb8742dada5,"1729","Research Ctr/Sheliah Sbnd",,37.203166,-80.405896,0,0
a36aca84-3212-42ca-94b2-5a71586ed5d3,"1730","Research Ctr/S Knollwood Sbnd",,37.199893,-80.405412,0,0
60fe62e5-e0fb-480b-95db-d69c95216828,"1711","Research Ctr/Rimrock Sbnd",,37.1960788784074,-80.4039433839287,0,0
1a4129c8-e0e5-4ea1-96ac-a037fef757f3,"1649","Blacksburg Transit",,37.196682,-80.394301,0,0
1c1d56ec-83d4-43e4-94ca-c5e8b02f1582,"1650","Commerce/Industrial Park Sbnd",,37.1950247702017,-80.3934921558793,0,0
823481c0-6a5b-4dff-82b4-2f5f975a36e9,"1651","Industrial Park/Prosperity Wbnd",,37.1939344521722,-80.3965324399789,0,0
6599fe98-ca35-4f94-8ae9-f3797f52d412,"1647","Industrial Park/Transportation Res Wbnd",,37.1936595257318,-80.400286191719,0,0
2a0230b3-e1c0-43cc-a1ed-0337bdc65462,"1712","Research Ctr/Rimrock Nbnd",,37.1961070416037,-80.4039420428242,0,0
1a77a152-0c3f-4603-a713-ba8c5276e577,"1716","Research Ctr/S Knollwood Nbnd","824",37.1999667406062,-80.4053421560134,0,0
7d4e0aa3-7f19-4bfd-9847-b72c21e57b05,"1713","Research Ctr/N Knollwood Nbnd","817",37.2026409031535,-80.4058557990704,0,0
8e4b470e-ea74-45bf-a564-90720bdead2f,"1703","Airport","737",37.2052641037264,-80.4084991162121,0,0
0d63d355-08b9-4d4e-b2b7-4b2a8caf08eb,"1706","Kraft/Tech Center Dr Sbnd","760",37.2042730274363,-80.4099032527151,0,0
3f99cf1f-a1cc-4def-b747-6992fa39b412,"1715","Kraft/Moss Bldg Sbnd","823",37.20188854348,-80.4098241275444,0,0
03f45914-33d0-4e02-8fa3-01851c1ebb50,"1707","Pratt/Kraft Wbnd","761",37.2011294782835,-80.4106489068656,0,0
38f7bd1d-6d9f-4c65-910c-a6f954bf04cb,"1708","Pratt Dr/Garvin Bldg Nbnd","762",37.2016940833148,-80.4117284960585,0,0
fa91aff1-bf22-408a-b036-8fae82c67999,"1709","Pratt Dr/Andrews Bldg Nbnd","763",37.2036842825225,-80.412419164921,0,0
52fa1961-32b4-4089-b190-6bf7b8fa69ec,"1722","Research Ctr/Innovation Nbnd",,37.206382,-80.419195,0,0
249e3f03-78bd-44a5-978a-1cd5b7462f04,"1128","Lane Stadium S Endzone Nbnd","741",37.2185182403635,-80.4192668449442,0,0
bb022d5d-1fab-4c87-85c8-0b971f3f81df,"1431","Main/Turner Nbnd",,37.2339302142817,-80.4190482448964,0,0
fa14fd48-6309-4470-b921-95c6864e0c5a,"1339","Progress/Watson Nbnd",,37.2389392399156,-80.4221019400419,0,0
98d051b6-8e27-4026-b065-c0c18806be09,"1305","Progress/Broce Nbnd","305",37.2423738087639,-80.4222440971282,0,0
45fc0329-ffa7-4297-a5af-89f1ecd414c0,"1306","Progress/University Terr Nbnd","306",37.2442285564082,-80.4214877141409,0,0
46447596-b0fd-4945-8ee4-2bfad9d6c347,"1307","Progress/Patrick Henry Nbnd","307",37.245230361535,-80.4214997840822,0,0
a652909b-21c7-4c20-b41a-b8d6cd72ef47,"1308","The Village on Patrick Henry Wbnd","308",37.2449353185258,-80.425218667103,0,0
4f7eba96-1b5c-4871-afc3-da2439e24ca0,"1309","Patrick Henry/Toms Creek Wbnd","309",37.243803,-80.428023,0,0
ac92db61-733c-4055-9a50-159d2d7be3e2,"1338","Toms Creek/Hunt Club Sbnd",,37.2420278037803,-80.4276541130336,0,0
86552d7a-201f-4c49-bf59-c990f610f8d1,"1330","Toms Creek/McBryde Sbnd","414",37.2395400547707,-80.426954056439,0,0
66e8ffab-84c2-45b3-abb2-6aae0a888942,"1331","Toms Creek/Watson Sbnd","415",37.238239183321,-80.4265959815142,0,0
dd7e0faf-ce7d-4a4e-bc30-544a1901b5f3,"1332","Gilbert Linkous Sbnd","416",37.2365467093317,-80.4268118993528,0,0
4d1c4e71-2d27-4db4-b033-1adb8f256de9,"1333","Toms Creek/Winston Sbnd","417",37.2343700965864,-80.4256478205709,0,0
90aef6c3-cfac-46b1-8491-455a802f547d,"1200","Prices Fork/Old Glade Wbnd","224",37.2313687045198,-80.4348960778055,0,0
845fdd68-30b4-4385-8cc7-613a4857c76b,"1201","Vet School Wbnd","225",37.2296158808241,-80.4378170035968,0,0
ab55fe2f-e546-4b91-b6c6-2eb1fee3175e,"1202","Prices Fork/Plantation Wbnd","226",37.2255080774729,-80.4446794357705,0,0
997b782e-f346-4331-8455-2271e9c1d212,"1203","Prices Fork/Huntington Wbnd","227",37.2245009079278,-80.4473978547691,0,0
8982318c-dbe8-4c18-b2dd-fd48ccb95a15,"1204","Hethwood Square on Hethwood","228",37.2167788277137,-80.4533697934967,0,0
cd9f1a37-4029-43fc-912b-306abed74459,"1205","Tall Oaks/Hethwood Ebnd","229",37.2144882210784,-80.4522285134929,0,0
da5a5482-bc08-449f-84b6-e20b2ce44ca5,"1206","Tall Oaks/Foxhunt Ebnd","230",37.2157649526456,-80.4504797131109,0,0
09d2eff1-ab20-4f28-a26f-69ab6b5e8808,"1207","Tall Oaks/Heather Ebnd","231",37.2172079811816,-80.4486531286629,0,0
c31353ee-0d3f-4fee-bde4-71c33cbff35a,"1212","Heather/Tall Oaks Nbnd","236",37.2177310119707,-80.4482695727509,0,0
6af38138-776d-42ac-bdb4-3058004902f4,"1213","Heather/Plymouth Nbnd","237",37.2196031939747,-80.4481220512463,0,0
271bd9e6-1c54-4633-9c67-adb39d0f8fed,"1214","Heather/Huntington Nbnd","238",37.2220426632191,-80.4489146440574,0,0
8dde3dd7-720a-4192-98ec-2fca01adb674,"1215","Prices Fork/Huntington Ebnd","239",37.2248978748857,-80.4463356999359,0,0
4758e93a-fb58-4abc-a025-e43200e180f8,"1216","Prices Fork/Plantation Ebnd","240",37.2253243461444,-80.445132729121,0,0
37515325-33c7-47ee-9ab8-0e732c420bb7,"1218","Prices Fork/Old Glade Ebnd","242",37.2314196664941,-80.4344079157357,0,0
8c8f77c3-6c62-4bb9-9051-09eddb7d5bdd,"1500","Roanoke/Church Ebnd","200",37.230159028182,-80.4127222545578,0,0
9a3e36b5-469f-4859-b02e-a58553fa404f,"1501","Roanoke/Wharton Ebnd","201",37.231247,-80.411105,0,0
56d338fc-ac58-4470-a996-12a1adeddbc7,"1502","Roanoke/Rutledge Ebnd","202",37.2318126101382,-80.4102640098491,0,0
1144b5b3-ff3f-454e-8f61-c111071493e0,"1503","Roanoke/Woolwine Ebnd","203",37.2326950569567,-80.4089711850268,0,0
532cdee1-13ab-4650-ac35-6fe9413918c1,"1504","Harding/Silverleaf Ebnd","204",37.2357930085536,-80.4083086793607,0,0
eb94a30f-c7ed-47e1-adf6-b49a328a1516,"1506","Harding/Patrick Henry Ebnd","206",37.2377778433429,-80.4058853033713,0,0
9e27790f-a27f-4c2b-b773-2bbec5bee873,"1507","Harding/Apperson Ebnd","207",37.2385825060953,-80.404277318971,0,0
6c501e48-05dd-4b19-ae91-c69264b1114c,"1508","Harding/Vista Ebnd","208",37.2392316007156,-80.4029925407763,0,0
49f01b68-0d09-4b70-b186-532e25544864,"1509","Harding/Roanoke Ebnd","209",37.2404433108819,-80.4005260367647,0,0
40316f72-40a7-41e7-8edb-c6f021b11ea5,"1510","Ascot/Harding Ebnd","210",37.2414538110169,-80.3990040957334,0,0
fc7daa24-16db-48a0-8c5a-2d7dc0890ab1,"1511","Ascot/Hampton","211",37.2392396473431,-80.3981860219351,0,0
5ebb8e03-828a-4363-b74c-a5a83d9956da,"1512","Ascot/Harding Wbnd","212",37.2414564932261,-80.3990201889884,0,0
c945cf17-786d-4d19-bc66-eeb022a91c3a,"1513","Harding/Rucker Wbnd","213",37.240411,-80.400591,0,0
684a05fb-fde8-4139-b0dd-1efbb8c6d77e,"1514","Harding/Sutton Wbnd","214",37.2391994142055,-80.4030582549011,0,0
a4cd3b1e-7dbb-42e9-95b4-4ad1ec833141,"1515","Harding/Apperson Wbnd","215",37.2384778999375,-80.4044771435545,0,0
e67d80f9-c386-41fc-8e20-c2971cbcc79a,"1516","Harding/Patrick Henry Wbnd","216",37.2377215169502,-80.4059939328428,0,0
58c1ef92-39e7-4e3c-bde2-c498b7a0d33c,"1517","Harding/Silverleaf Wbnd","218",37.2357956907627,-80.4083127026744,0,0
f7292537-e83a-4e82-aafb-3ec90178506d,"1518","Roanoke/Woolwine Wbnd","219",37.23255,-80.409175,0,0
fffc6bd7-e912-4a41-83c6-d25659234094,"1519","Roanoke/Rutledge Wbnd","220",37.2317764003143,-80.4103216773463,0,0
a05e0430-561d-4b39-9f41-b4f445f5999c,"1520","Roanoke/Wharton Wbnd","221",37.23114,-80.411262,0,0
e5a981e3-0405-42fe-8f4e-e8460f6f693a,"1521","Roanoke/Penn Wbnd","222",37.2303883570664,-80.4123923428292,0,0
70ea724a-57b6-49c9-a113-887c44433961,"1304","Broce/Toms Creek Ebnd",,37.241424306716,-80.4259978488682,0,0
bcff9bf4-355d-486c-b88d-92ae9ecff27b,"1409","1500 North Main Nbnd","110",37.2490927427466,-80.4129207380367,0,0
9932b234-2ae0-4e3b-9728-0b7a76f09787,"1410","Main/Giles Nbnd","111",37.2509823591103,-80.4116051144364,0,0
41d01857-f4a8-42e0-bd0e-a825e724125f,"1411","Main/Red Maple Nbnd","112",37.2531254442409,-80.4109251744106,0,0
356d7511-af96-4bc8-aa2a-fa310507711c,"1439","Main/Givens Nbnd",,37.2556131932505,-80.4106958455262,0,0
9eafaf15-b4e3-48e3-9a28-20936404df65,"1412","Givens/Main Wbnd","113",37.2561040375295,-80.4114683217685,0,0
5c100c6f-3e67-43a9-ba4e-c6859aef0e24,"1413","Whipple/Givens Sbnd","114",37.254792437243,-80.4133928068514,0,0
8dc9288b-d2b8-4131-862b-92c775a67133,"1428","Whipple/Courtney Sbnd","171",37.2524830551435,-80.4127490766495,0,0
87c477ec-cbc1-4be1-ade4-9ecdc563a491,"1435","Whipple/Main Sbnd",,37.250948,-80.412382,0,0
78227f48-4708-491a-a3df-4662c5296815,"1429","1500 North Main Sbnd","172",37.2494964152274,-80.4126364238642,0,0
cefee672-11de-4f1f-a837-cfaa046f3b8c,"1434","Patrick Henry/Seneca Ebnd",,37.2469188122105,-80.4165162394354,0,0
a71aa154-c4dc-4a93-bc17-1c2badd2858c,"1416","Main/Patrick Henry Sbnd","119",37.246036365392,-80.4150718697948,0,0
5cab76ab-be11-4c64-a593-9dcb80f7da4f,"1417","1200 North Main Sbnd","120",37.2432629611053,-80.4170567045842,0,0
d16b302a-cd5a-44a8-bad6-564c84a793ea,"1418","Main/Northview Sbnd","121",37.2415302539784,-80.4183173428963,0,0
c39a7bb4-48f4-4833-a3ce-f3422e9b7354,"1419","Main/Lucas Sbnd","122",37.2401609861947,-80.4192990314543,0,0
daf998cd-720f-46d7-a6fe-7c24df0f4dcf,"1420","Main/Montgomery Sbnd","123",37.238916,-80.420067,0,0
bc459028-ee2e-43e6-b9d7-a0086f9b8224,"1222","Tall Oaks/Colonial Sbnd",,37.2165682742934,-80.4461506275028,0,0
7fb676d6-f377-45bf-a6bd-e7e5b8fcec8e,"1208","Tall Oaks/Foxtrail Sbnd","232",37.2141073473756,-80.4442838099172,0,0
e903d8b4-d5ba-4de8-af78-4cfc4569d9ee,"1209","Stroubles Cr","233",37.2131685741644,-80.4441872503869,0,0
6ba59fa2-a28a-41d9-a681-efaf7df25fa7,"1211","Tall Oaks/Copper Croft Nbnd","235",37.2159969637392,-80.4453178015541,0,0
6a988751-3df9-4b4a-9877-fe6bf57afdf9,"1424","Main/Lucas Nbnd N","167",37.2403058254901,-80.4191971075056,0,0
aa6555df-84a5-48b8-9adb-f106aace66a2,"1425","Main/Northview Nbnd","168",37.2419191743087,-80.4180316876192,0,0
fcde9f5f-32b7-4051-bc50-c088e6edf4d3,"1426","1200 North Main Nbnd","169",37.2432710077328,-80.4170499990612,0,0
6a5a6a05-12b7-4a4b-8a46-ea2afe055e11,"1427","Main/Patrick Henry Nbnd","170",37.2460457531241,-80.4150651642719,0,0
5afe32ee-e9a6-4079-8bdd-e14390a20f04,"1221","Carpenter Blvd/Redd Circle",,37.225667,-80.447849,0,0
030b9f6c-30f9-4df4-9264-1e45ed1a5ccf,"1220","Heather/Plymouth Sbnd",,37.2199907732004,-80.44809388805,0,0
69d21292-99ab-422a-b5e6-b3c168660049,"1433","Patrick Henry/Mary Jane Ebnd",,37.246663,-80.419766,0,0
a0f4e89d-1dce-40f0-8ac4-25efe929f405,"1437","Givens/Yale Ebnd",,37.253946,-80.41783,0,0
66d33467-477f-4afe-9ea0-2ef7030f48a7,"1436","Givens/Whipple Ebnd",,37.255115,-80.414177,0,0
a3a12512-4f4d-4b58-ab1a-be1ef91fe0fc,"1800","Uptown Mall",,37.1660917798336,-80.428548,0,0
e1bb5d78-8f5d-41d3-88c7-279b18bb9122,"2226","Shoppers Way Ebnd",,37.166677,-80.425254,0,0
f1091a91-205f-4218-9ae9-f47200f507de,"2112","Recreation Center",,37.15039,-80.41583,0,0
e894e468-bc46-42ef-8041-df55b9feaae8,"2178","North Franklin/Church Sbnd",,37.1423341120681,-80.4151872047894,0,0
e1cfb459-de33-4280-9e73-57f5adafab62,"2302","North Franklin/Wades Sbnd",,37.1363273046212,-80.4139547296736,0,0
ee374fbe-7138-4547-b888-857ae27d6572,"2304","N Franklin/Graham Sbnd",,37.13163,-80.41143,0,0
bc06b321-8f64-4d9d-b6c0-d0f68a77874a,"2110","Montgomery County Courthouse",,37.1307281929689,-80.4077373688064,0,0
960e231f-96a2-40f8-bea5-aef541f88c91,"2179","Roanoke/First Ebnd",,37.130467,-80.405432,0,0
a8cb4605-ca70-45b5-9641-6a6d6216ae1c,"2111","Roanoke/Evans Ebnd",,37.13015554131,-80.4020913184936,0,0
44d976c5-59aa-4c75-91d4-62b79496b3df,"2131","Roanoke/Roberts Ebnd",,37.1303795057762,-80.3977340696892,0,0
b748f546-81ac-46c9-a509-7faf3a45e9f8,"2100","Montgomery County Govt Center",,37.1314309317727,-80.3933151300737,0,0
e1938b20-e7b1-4125-8a27-b164ef871a97,"2184","Roanoke/Hungate Ebnd",,37.1341332575162,-80.3849627307035,0,0
453d7876-c7d5-4b7a-b347-1f6bc9235906,"2186","Roanoke/Falling Branch Ebnd",,37.1327814240921,-80.3774538861188,0,0
cdd1101b-eb40-482b-94a0-f1351f840b6a,"2115","Exit 118 Park and Ride",,37.1339267274098,-80.3718386812114,0,0
26c64de4-18d7-4815-a68d-578be62141f6,"2113","Simmons/Hammes Nbnd",,37.136386313223,-80.3700000268221,0,0
a9e17287-c384-442d-aabe-25a4b798a534,"2153","Electric Way/Fisher St Wbnd",,37.136674,-80.375598,0,0
4ad3eb0c-a009-4482-b25b-25b8967b359f,"2154","Simpson Rd/Village Ln Wbnd",,37.139113,-80.378295,0,0
fd23b7e1-44b0-4fc8-ac84-374056668e62,"2155","Electric Way/Fisher St Ebnd",,37.13652,-80.375184,0,0
5e817b76-05a7-47b6-a547-fd4264a65e03,"2192","Roanoke/Falling Branch Wbnd",,37.1330818315197,-80.3766344712159,0,0
6ecd6204-03bb-478a-ac5b-3d3e90046b44,"2116","Roanoke/Hungate Wbnd",,37.1341453274575,-80.3849587073898,0,0
a4b019d4-6c66-4a96-b416-fbb75ea8b083,"2117","Roanoke/East Wbnd",,37.1315100569433,-80.3931153054902,0,0
992abb77-8241-4e41-a4e8-386c55c1709f,"2118","Roanoke/Craig Wbnd",,37.1304210800184,-80.3972700475019,0,0
593635f7-68f3-4c58-b2ef-09c9bc15cc4c,"2119","Roanoke/Evans Wbnd",,37.1301635879376,-80.4026706756753,0,0
3b60484f-c346-4827-8e82-9a4d65260641,"2120","Christiansburg Town Hall",,37.1305551904771,-80.4079412167037,0,0
45872015-7a16-4708-a961-cffdfd6d706c,"2193","Main/Hickock Wbnd",,37.1283262746529,-80.4106341547152,0,0
db69970e-cb94-42de-8739-ce1f2160a5a0,"2194","Radford/College Wbnd",,37.1271112338967,-80.4145045825544,0,0
eb698ee4-ec23-4abe-bdd9-bba7f8653ab9,"2196","Depot/Sheltman Ebnd",,37.1302561241541,-80.4153239974573,0,0
6d27fa03-fadb-49dc-9109-cc8c33e3e184,"2301","North Franklin/Wades Nbnd",,37.1365123770542,-80.4138058670644,0,0
3991ab13-493e-4344-9c39-e820e9de3b1b,"2170","North Franklin/Church Nbnd",,37.1420310224313,-80.4150007912517,0,0
bd93d318-b248-44dc-af46-c997de06a47f,"2303","North Franklin/Cambria Nbnd",,37.14947,-80.41459,0,0
481c92b3-0804-4a2f-bdef-b9e4ca7a8e65,"1802","Walmart",,37.161693,-80.425831,0,0
8eb02df1-ff41-41ce-b4e0-c5016a2a73eb,"2200","Conston/Spradlin Farm Wbnd",,37.1582556548904,-80.423157283892,0,0
752cd776-a73f-45f0-9567-f4090433934d,"2201","Farmview/Ridinger Ebnd",,37.156464963448,-80.4212457237813,0,0
01a4ed25-250e-4be1-9d96-83646426a197,"2108","Depot/New Wbnd",,37.1308095312306,-80.414608049585,0,0
70e818b1-9adb-4591-89a1-5d4b377403d0,"2195","Radford/Bower Wbnd",,37.127760328517,-80.4197737824782,0,0
966798cf-2c9e-4b05-8ff5-9a0815dfd755,"2180","Nugget Ridge Circle",,37.1264581159626,-80.4223057879392,0,0
981cfa94-eea4-45ea-9dbe-6e4918f59a17,"2181","Nugget Ridge/Radford Nbnd",,37.1275350229463,-80.4222789658474,0,0
51dd607d-482e-480c-8cb7-b4c16973ec16,"2182","Radford/Quesenberry Ebnd",,37.1276704745096,-80.4202404868746,0,0
dee9a365-22e7-4ccb-a4cb-65f020a3b979,"2183","Radford/Depot Ebnd",,37.1277509407849,-80.4166302333254,0,0
3c869480-fed3-4b15-8d6c-7d6c2f4d849c,"2152","Radford/College Ebnd",,37.1270978228508,-80.4145206758094,0,0
c904846a-a313-4604-a705-109ce3d12964,"2109","W Main/Dunkley Ebnd",,37.1283,-80.4106,0,0
52e840d4-d201-4267-ab04-d99cd35ec656,"2101","Republic/Salem Nbnd",,37.1372177980672,-80.3961917994137,0,0
64dd264b-1f50-412e-b166-174bf22a6afa,"2104","Depot/Cambria Wbnd",,37.1412411118293,-80.4040077569489,0,0
f23612d4-3471-41b7-a65c-b3a489a40ec8,"2105","Aquatic Center",,37.1383362792931,-80.4125063367192,0,0
77aca41a-cccc-4d5b-87c9-a4c8efb0d441,"2171","Church/Brown Ebnd",,37.1432004656315,-80.409994447827,0,0
06bd8b21-7a7f-43ee-b941-32bd749e8053,"2172","Montgomery/Cambria Ebnd",,37.1427337612351,-80.4057190064024,0,0
011b843c-79c3-4178-aebd-b2e02aa77402,"2173","Cambria/Church Nbnd",,37.1436403479362,-80.4054990652501,0,0
7a9ba6d4-1cb2-4d24-85ee-b501f7b48fec,"2174","Cambria/Progress Nbnd",,37.1466578332578,-80.4046930613931,0,0
4cce5ae9-a2f8-4f54-91c8-69c55ff1cf0c,"2175","Cambria/Tyler Nbnd",,37.148311415214,-80.4050243142262,0,0
e5b35fd1-40c8-4c55-961d-07cc77c11f71,"2176","Central/Cambria Wbnd",,37.1509989888071,-80.4104598111188,0,0
790b1154-1fde-4398-85b7-9e11982c09d8,"2177","Central/North Franklin Wbnd",,37.149930128451,-80.4144254573837,0,0
57ce7560-15f7-434e-b2ed-6452b6555be6,"2202","Laurel/Sycamore Ebnd",,37.1623340047797,-80.420921768005,0,0
d5262481-e737-4037-bbf7-7ad81cc29511,"2204","DMV on Arbor Nbnd",,37.1652991870224,-80.4179364691935,0,0
2340f1b0-31b2-43af-8087-7abf2e589321,"2205","Post Office on Arbor Nbnd",,37.167595158076,-80.4174509893328,0,0
bf73ae7b-c179-45bc-9734-56d4e33f0b72,"2206","Arbor/Market Wbnd",,37.1688169043551,-80.4195900511497,0,0
5d54d6c6-63ed-42ba-a2bc-f36b74f36ec9,"2207","Market/Shoppers Way Sbnd",,37.167082,-80.421249,0,0
99186434-deba-48a6-9164-31495fb5658a,"2209","Shoppers Way Wbnd",,37.166659067074,-80.4252280548351,0,0
bdfd6562-cc4e-4aee-966b-bcc843a30f1b,"1801","NRV Theatre",,37.1642249622479,-80.429137,0,0
